namecity,namecountry,longitude,latitude
Ngrayun,Indonesia,111.4514369,-8.0888877
Narvacan,Philippines,120.4752304,17.4190115
Uberlândia,Brazil,-48.2841556,-18.9172494
Šentjur,Slovenia,15.38742,46.218184
Bahía Blanca,Argentina,-62.278743,-38.7239099
Guanyinsi,China,120.185095,33.083093
Heerlen,Netherlands,5.9651892,50.9212447
Ezhou,China,114.894843,30.39194
Čačak,Serbia,20.3501652,43.8914144
Kalahang,Indonesia,106.1831224,-6.3077304
Horlivka,Ukraine,38.029633,48.3071
Gyumri,Armenia,43.8464971,40.7929026
Cavinti,Philippines,121.498915,14.262652
Famaillá,Argentina,-58.4985279,-34.5903044
Ar Rahad,Sudan,30.635,12.72486
Cruzeiro do Sul,Brazil,-51.99249,-29.5137043
Pidvolochys’k,Ukraine,26.1416979,49.5290848
Lazaro Cardenas,Mexico,-102.1943485,17.9567646
As Sūq al Jadīd,Yemen,44.06204,15.82496
Vazhiny,Russia,34.0219218,60.9596322
Ambo Village,Kiribati,173.04259,1.35317
Frederiksberg,Denmark,12.5368683,55.6710988
Huyuan,China,109.482078,28.572029
Kokagax,China,87.68753,47.01741
Yungay,Peru,-77.7423469,-9.1384166
Parobé,Brazil,-50.8316868,-29.6247579
Istaravshan,Tajikistan,69.0254926,39.8772715
Jabłoń,Poland,23.0876498,51.7248754
Świętochłowice,Poland,18.9285154,50.3142814
Wang Yang,Thailand,104.4490398,17.0740883
Shakhun’ya,Russia,46.6107277,57.6734511
Gromnik,Poland,20.9789037,49.8381802
Lüjiabao,China,103.982523,34.470812
Val-de-Reuil,France,1.207968,49.2752229
Vólos,Greece,22.942159,39.3621896
Anyar,Indonesia,105.9112424,-6.0924606
Poroçan,Albania,20.2899237,40.9357866
Lindome,Sweden,12.2028691,57.6055534
Volksrust,South Africa,29.9682719,-27.1192795
Duhu,China,121.402682,30.107387
Camasca,Honduras,-88.3803792,13.9967823
Kedawung,Indonesia,108.5329338,-6.7191062
Haoba,China,104.540674,27.91072
Al Ḩusayn,Yemen,44.783333,13.783333
Rukunlima Bawah,Indonesia,121.6439,-8.8512
La Unión,Chile,-73.079328,-40.2952749
Tonoas Municipal Building,Micronesia,151.8843916,7.3760605
Lagunas,Peru,-75.6557206,-5.2368931
Sukowidodo Barat,Indonesia,111.8941208,-8.0119417
Caja,Peru,-74.466667,-12.883333
Fort Abbās,Pakistan,72.8578648,29.2083348
El Pao,Venezuela,-68.129727,9.6389796
Oesao,Indonesia,123.8132141,-10.0999445
Laiyuan,China,114.694283,39.360247
Saint-Eustache,Canada,-73.907613,45.559393
Dehī,Afghanistan,69.079674,34.496651
Prilep,Kosovo,20.3190646,42.5076746
Aconibe,Equatorial Guinea,10.9439689,1.2964078
Comal,Indonesia,109.5389573,-6.8866676
Guadalupe,Mexico,-100.2596935,25.6775595
Saint-Étienne,France,-0.8926089,43.1598675
Pittsburgh,United States,-80.0367259,40.4222843
Yangxipu,China,110.873513,32.830953
Rozkishne,Ukraine,39.2712224,48.4902808
Bārah,Sudan,30.3723741,13.6986477
Bangko,Indonesia,102.3234816,-2.0764561
Qingshui,China,106.137293,34.749864
Yanzhao,China,116.783833,35.553144
La Soledad,Mexico,-101.1850967,19.7267712
Dūst Moḩammad Khān,Iran,61.7925,31.1447
Sanlanbahai,China,102.43323,35.85544
Taiping,China,-6.2634596,53.3004898
Antou,China,109.264659,34.727798
Buenavista,Mexico,-93.1569465,16.7646627
Baruta,Venezuela,-66.8521565,10.378758
Abreus,Cuba,-80.5716199,22.2795961
Luqiao,China,121.365123,28.582654
Morelos,Mexico,-99.1802147,18.9201578
Yantianhe,China,115.161532,30.967145
Ostroróg,Poland,16.4463703,52.6269375
Dahao,China,105.011894,34.563589
Londres,Argentina,-68.1247915,-38.9568843
Vermil,Portugal,-8.3894249,41.4495777
Mijiang,China,100.22775,26.855047
Nglengkong,Indonesia,111.8330962,-8.1095216
Andorinha,Portugal,-8.5720706,40.2758091
Ždánice,Czech Republic,16.2620907,49.5474598
Mỹ Thọ,Vietnam,106.3438891,10.3765284
Pantubig,Philippines,120.9518182,14.967193
Dapchi,Nigeria,11.5006548,12.4959322
Vojnić,Croatia,15.6962323,45.3250638
Ágios Matthaíos,Greece,19.8722638,39.494488
Perpignan,France,2.8797149,42.6962642
Uummannaq,Greenland,-52.12639,70.67472
Qijiang,China,106.651361,29.028066
Puubheto,Indonesia,121.5904,-8.7918
Aūa,American Samoa,-170.6618234,-14.2697392
Napoli,Italy,14.2352339,40.846108
Monte Novo,Portugal,-7.5934261,37.3716902
Xugu,China,111.033425,38.491235
Borek,Poland,20.5122334,50.0055345
Johor Bahru,Malaysia,103.7983752,1.5484759
Sikeshu,China,112.6061178,33.6634952
Rivera,Uruguay,-55.5469032,-30.9178625
Padurung,Indonesia,106.3903,-6.5871
Hudlice,Czech Republic,13.9706421,49.9609687
Mateus Leme,Brazil,-44.4370606,-20.017643
Debre Mark’os,Ethiopia,37.7343987,10.3296345
Selmes,Portugal,-7.7618365,38.1454503
Qabaqçöl,Azerbaijan,46.2680965,41.7105857
Bronnitsy,Russia,38.2447393,55.4055305
Klau,Indonesia,116.8776192,-1.2088413
Pak Phayun,Thailand,100.3385624,7.3293411
Krivaja,Serbia,19.6056613,45.8074308
Pámfylla,Greece,26.52167,39.15667
Karatau,Kazakhstan,70.455208,43.1780169
Balboa,Colombia,-75.958017,4.9497479
San Juan Bautista,Paraguay,-57.1407852,-26.6707181
Luozhou,China,105.44174,28.871569
Chambéry,France,5.8930389,45.590443
Ueda,Japan,140.4069331,36.905485
Chinoz,Uzbekistan,68.7512681,40.9463093
Sinilian First,Philippines,120.45936,15.69327
Maythalūn,Palestinian Territory,35.27446,32.34798
Ozorków,Poland,19.387459,51.881883
Wolong,China,103.183075,31.03094
Dok Kham Tai,Thailand,100.0359661,19.150464
Morelos,Mexico,-99.6684882,19.7899891
Balayong,Philippines,121.4256292,13.9192331
Xiangyang,China,112.122426,32.009016
Cherkasskoye,Russia,47.202499,52.423321
Loures,Portugal,-9.1901989,38.8424265
Chābahār,Iran,60.6459285,25.296878
Banyumas,Indonesia,109.140438,-7.4832133
Madīnat Ḩamad,Bahrain,50.4980362,26.1256441
Gannan,China,102.911027,34.983385
Al Wardānīn,Tunisia,10.67397,35.70915
Balrothery,Ireland,-6.1884248,53.5879156
Prokop’yevsk,Russia,86.8634095,53.8035238
Maronge,Indonesia,117.666952,-8.7287229
Mardakyany,Azerbaijan,50.1454455,40.4810579
Ise,Japan,131.1627748,32.7827213
Dongcun,China,114.62836,26.58051
Mariefred,Sweden,17.2093329,59.3549627
Göteborg,Sweden,12.0098218,57.6735995
Dezhou,China,116.357464,37.434092
Evijärvi,Finland,23.472317,63.3767052
Euclides da Cunha,Brazil,-38.9066439,-10.5219124
Piúma,Brazil,-40.7357215,-20.8420055
Gajiram,Nigeria,13.2057597,12.4860074
Huanghua,China,117.329949,38.371402
Changgang,China,113.276884,23.090657
Čačak,Serbia,20.3501652,43.8914144
Ceper,Indonesia,110.670528,-7.6832323
Vrede,South Africa,28.8476254,-27.2369945
Anchang,China,115.858197,28.682892
Tulsīpur,Nepal,82.3234843,28.154453
Banjar Budakeling,Indonesia,114.9671388,-8.2104974
Apalit,Philippines,120.755354,14.960458
Cheremshan,Russia,51.5020158,54.659677
Andkhōy,Afghanistan,65.1254488,36.9549975
Ţalkhā,Egypt,31.380243,31.0549151
Caoxi,China,107.730679,35.657343
Pendolo,Indonesia,120.6832556,-2.0865267
Harbutowice,Poland,19.785536,49.817777
Morondava,Madagascar,44.2999955,-20.2904186
San Isidro,Philippines,126.065213,9.939624
Alvega,Portugal,-8.0455725,39.4680636
Batulayang,Indonesia,109.3128909,0.0132035
Laç,Albania,19.705595,41.6412644
Saint-Brieuc,France,-2.7383235,48.509075
Oguta,Nigeria,6.8083063,5.7055314
Kotri,Pakistan,68.3122196,25.3681203
Ambelókipoi,Greece,20.8728543,37.7582938
Paraguaçu Paulista,Brazil,-50.5745694,-22.4186285
Eshan,China,102.405819,24.168957
Mabusag,Philippines,120.467,17.9333
Hidalgo,Mexico,-98.7623874,20.0910963
Caculé,Brazil,-42.2236477,-14.4974525
Stockholm,Sweden,18.0899315,59.334679
Chiang Khan,Thailand,101.6271544,17.8759173
Mungui,Peru,-72.9061903,-15.1838408
Snegiri,Russia,37.0330937,55.8874526
Huangrangping,China,110.9980457,28.6811253
Birobidzhan,Russia,132.933333,48.783333
Utsjoki,Finland,27.0796336,69.6811494
Bowen Island,Canada,-123.2679395,49.3637828
Tugu,Indonesia,106.8502879,-6.3621916
Kiviõli,Estonia,26.9669311,59.3559924
Mar’ina Roshcha,Russia,44.0036677,56.2835999
Guimba,Philippines,120.769358,15.66085
Krasica,Croatia,13.6968992,45.3836941
Angoulême,France,0.0629891,45.6258385
Huillapima,Argentina,-58.6516777,-34.8435213
Jasper Park Lodge,Canada,-118.0572366,52.8861365
Wolfville,Canada,-64.3623382,45.089753
Kokaj,Albania,19.5359821,42.2609633
Lewolere,Indonesia,122.9634852,-8.339355
Laotai,China,121.9194335,29.3781872
Itaporanga,Brazil,-49.4823246,-23.7047572
Nunbaundelha,Indonesia,123.5714032,-10.1748845
Vratsa,Bulgaria,23.6556259,43.2625974
Aqaba,Jordan,35.0063209,29.5320522
Shentang,China,123.431472,41.805699
Tauranga,New Zealand,176.1595188,-37.6981612
Baiguo,China,104.512603,26.006775
Ilongero,Tanzania,34.8706935,-4.6694294
Balagon,Philippines,121.6482773,18.1605511
Siukh,Russia,46.5477914,42.6002262
Lam Sonthi,Thailand,101.3608214,15.2988083
Kaminoyama,Japan,141.5437532,38.7333101
Marfino,Russia,37.3835828,55.7039687
Orillia,Canada,-79.4294664,44.6077025
Huangzhan,China,110.179953,25.234479
Al Jawādīyah,Syria,41.8184743,36.9853085
Athens,Greece,23.7275388,37.9838096
Puerres,Colombia,-77.2635038,0.8275786
Daduchuan,China,123.00932,47.182723
Sapol,Philippines,121.1893,13.365
Tsukuba,Japan,139.4593556,36.1029484
Solţānābād,Iran,58.0384692,36.4056598
Richibucto,Canada,-64.8659804,46.6817873
Sekarjalak,Indonesia,111.0631793,-6.612633
Balad,Iraq,44.148291,34.0076216
Baz,Albania,19.9310781,41.6315023
Minami-rinkan,Japan,139.4480166,35.4957441
Jiahe,China,112.36902,25.587519
Binitayan,Philippines,123.7154023,13.1554369
Tamberías,Argentina,-68.5173853,-31.5868009
Nazaré,Portugal,-9.0700991,39.6012147
Cergy-Pontoise,France,2.074954,49.039076
Črenšovci,Slovenia,16.2877346,46.5720029
Eckerö,Aland Islands,19.5595375,60.2231622
Västervik,Sweden,16.6236443,57.759167
Masantol,Philippines,120.7063932,14.880403
Bilhó,Portugal,-7.8500816,41.4037275
Puyehue,Chile,-72.6131562,-40.6607937
Shiyuetian,China,108.952224,19.328109
Vierzon,France,2.0598182,47.2265307
Paringin,Indonesia,115.5088914,-2.3549763
Gendiwu,Indonesia,108.8115,-7.4898
Tanjungbalai,Indonesia,99.7985457,2.9662346
Semenivka,Ukraine,32.583994,52.1814619
Beo,Indonesia,126.798485,4.2292379
Jönköping,Sweden,14.1585251,57.7724113
Guaratinguetá,Brazil,-45.1904004,-22.8140057
Golubinci,Serbia,20.0818204,44.9811213
Outeiro,Portugal,-8.2327446,40.9183403
Banyubang,Indonesia,112.4142453,-6.9244162
Besançon,France,5.970378,47.304702
Sugito,Japan,139.7192223,36.0359016
Mashi,Nigeria,8.0028892,13.0958903
Puyang,China,115.029215,35.761829
Yonezawa,Japan,139.007103,37.2516991
Muleba,Tanzania,31.5370003,-2.164898
Sävsjö,Sweden,14.5999796,57.3190981
Saint-Bruno-de-Guigues,Canada,-79.4387857,47.4636372
Aurelliana,Philippines,121.9757838,10.8847156
Obonoma,Nigeria,6.7815237,4.6845489
Pukou,China,118.627894,32.059093
Torrijos,Philippines,122.0103514,13.3393279
Kuala Lumpur,Malaysia,101.7324927,3.139199
Kasukabe,Japan,139.7460429,35.981548
Beizheng,China,121.798685,41.594744
Pālang,Bangladesh,92.0974076,21.3106467
Osvaldo Cruz,Brazil,-50.879763,-21.7972251
Balite,Philippines,121.0220037,14.5338735
Metchosin,Canada,-123.53785,48.382005
Songkhla,Thailand,100.5927222,7.1864095
Khotsimsk,Belarus,32.4706123,53.4334331
Cholpon-Ata,Kyrgyzstan,77.0852258,42.6503176
Margen,Philippines,124.5298181,11.0181098
Zelenogradsk,Russia,20.4747022,54.9562342
Yong’an,China,117.365052,25.941937
Oslo,Norway,10.6555089,59.9772362
Sitrah,Bahrain,50.6275108,26.1628197
Awat,China,80.375053,40.643647
Greenville,Liberia,-9.0377612,5.0153677
Pontes,Portugal,-8.5290447,39.7122932
Lephalale,South Africa,27.6808712,-23.6845941
Arauco,Chile,-70.6516913,-33.4408815
Cill Airne,Ireland,-6.2890702,53.3201497
Carcavelos,Portugal,-8.3169303,41.3410168
Lorengau,Papua New Guinea,147.279039,-2.0349854
Tungdor,China,94.08333,29.2
Ban Ko Lan,Thailand,100.5073712,13.75639
Amarete,Bolivia,-68.965462,-15.23723
Jihuluntu Sumu,China,110.321723,40.784544
Rogoźnik,Poland,19.9504449,49.444308
Avellaneda,Argentina,-57.5825246,-37.9973752
Várzeas,Portugal,-8.8416426,39.8494257
Baihua,China,114.088418,22.551367
Hewan,China,118.371345,30.987762
Heping,China,114.938684,24.44218
Alegre,Brazil,-41.4812771,-20.6869406
Tierimu,China,77.597552,39.266576
Energeticheskiy,Kazakhstan,77.0216405,43.4259712
Mae Fa Luang,Thailand,99.8913421,20.0450379
Mundão,Portugal,-7.8725232,40.6945206
Savé,Benin,2.4851463,8.0335995
Colón,Cuba,-80.9041817,22.7238445
Tatarka,Russia,42.0328581,44.9544161
Kafr Miṣr,Israel,35.421551,32.647371
Princeville,Canada,-71.885445,46.152911
Aba,China,102.224653,31.899413
Huangliang,China,110.839164,31.264698
Zhanjia,China,110.359368,21.270702
Leśnica,Poland,18.1872242,50.4305778
Nueva Esperanza,Mexico,-92.6291625,16.7499304
São Miguel dos Campos,Brazil,-36.1328132,-9.7625469
Gustavia,Saint Barthelemy,-62.852201,17.8964345
Yuli,Nigeria,10.1941399,9.7031412
Litian,China,103.817356,25.60162
Kibuku,Uganda,33.7992536,1.0452874
Kroonstad,South Africa,27.2409361,-27.6817666
Isak,Indonesia,96.884193,4.449797
Umeå,Sweden,20.2663426,63.8288884
Zhangqing,China,116.339882,29.713689
Xiangyangpu,China,112.365875,39.609342
Barbudo,Portugal,-8.4356533,41.6569962
Paola,Malta,14.510096,35.880105
Giesteira,Portugal,-8.43985,42.0696235
Ciénaga,Colombia,-73.9830029,10.8698035
Sinfra,Ivory Coast,-5.9145568,6.6233371
Tulyushka,Russia,101.1756457,54.4515199
Longlisuo,China,109.10222,26.41417
Abovyan,Armenia,44.633383,40.2715286
Taposan,Indonesia,113.1741,-6.9579
Itiruçu,Brazil,-40.1657466,-13.4743387
Alepoú,Greece,19.8966576,39.6185297
Casilda,Argentina,-60.6923382,-32.9285798
Mölndal,Sweden,11.9664639,57.6557636
Seydi,Turkmenistan,62.8617596,39.4286365
Hinlayagan Ilaud,Philippines,124.3470114,10.0382093
Opatovice nad Labem,Czech Republic,15.7904531,50.1454119
Ambarakaraka,Madagascar,48.86667,-13.5
Tacna,Peru,-70.2462741,-18.0065679
Faīẕābād,Afghanistan,70.5552362,37.1017088
Qingsong,China,121.56013,38.919414
Inhumas,Brazil,-49.4872858,-16.3062209
Sukowono,Indonesia,113.8227792,-8.0634771
Pasirnangka,Indonesia,106.2698669,-6.5792655
Valleymount,Ireland,-6.3077823,53.3655256
Luksuhin,Philippines,121.1729455,13.8195176
Lutomiersk,Poland,19.181814,51.7788594
Ayorou,Niger,0.9104334,14.7328144
Ronggui,China,113.295336,23.0872891
Tagawa,Japan,139.7516875,38.6913664
Vetrino,Bulgaria,27.4337343,43.3155137
Bořetice,Czech Republic,16.8550346,48.9154732
Colcabamba,Peru,-74.7,-12.4
Benito Juarez,Mexico,-99.0073673,19.4102526
Uglovoye,Russia,132.08832,43.32807
Songying,China,118.674614,37.433963
Wolin,Poland,14.6143984,53.8419317
Meijiahe,China,110.494385,30.918919
Guadalupe,Mexico,-98.0587939,16.3496709
Tupambaé,Uruguay,-54.7604286,-32.8361857
Shinpokh,Pakistan,71.17852,34.3296
Selínia,Greece,23.5288412,37.9334705
Bastak,Iran,54.3666012,27.198639
Banda Layung,Indonesia,96.0662,4.21668
Petropavlovsk,Kazakhstan,69.1505479,54.8732209
Huaqiao,China,118.6422409,24.9372186
Babushkin,Russia,40.2145002,61.6724707
Gelap,Indonesia,112.2443628,-6.9654201
Khorostkiv,Ukraine,25.9034702,49.2030849
Puyehue,Chile,-72.6131562,-40.6607937
Sumberjati,Indonesia,113.9358031,-8.1830575
Dublin,Ireland,-6.2427004,53.3347733
Sanjiang,China,109.607675,25.783198
Teculután,Guatemala,-89.719295,14.990034
Puerto Barrios,Guatemala,-88.5847779,15.7318052
Paccha,Peru,-75.508016,-11.8532073
Sovetskaya,Russia,50.0742576,57.8395263
Wright,Philippines,120.2835463,14.8162948
Huzhuang,China,120.839842,31.129098
Changyi,China,119.398525,36.858819
Uyutne,Ukraine,33.2979082,45.1973827
Santa Bernardina,Uruguay,-56.5112061,-33.3516458
Tukuyu,Tanzania,33.6483471,-9.2538202
Andaray,Peru,-72.858566,-15.81143
Yangdi,China,110.4541138,24.9938893
Masingbi,Sierra Leone,-11.4722494,8.636758
Lindavista,Mexico,-100.956682,21.1494763
Laocheng,China,112.469023,34.683646
Tagnanan,Philippines,125.84222,7.28361
Lac-Mégantic,Canada,-70.903207,45.588882
Iriga City,Philippines,123.41496,13.420533
Murcki,Poland,19.0197207,50.2036798
Skolkovo,Russia,37.3439888,55.6830117
Fagersta,Sweden,15.7887356,60.0071007
Yuanyang,China,102.835223,23.219932
Dueñas,Philippines,121.0485932,14.5008343
Hanchang,China,113.584985,28.704586
Lom Sak,Thailand,101.2451095,16.7733926
Racine,United States,-87.8255014,42.7333428
Mūḩ Ḩasan,Syria,40.32227,35.23194
Évreux,France,1.1394024,49.0226173
Ryczywół,Poland,16.8357836,52.8131502
Sanfang,China,119.2972038,26.085124
Shaykh al Ḩadīd,Syria,36.5999443,36.5003488
Tsuyama,Japan,134.041335,35.0780152
Hisings Kärra,Sweden,11.9694396,57.7806567
Stąporków,Poland,20.57188,51.13737
Caobi,China,107.035769,34.751868
Colmar,France,7.3469006,48.0724737
Pradera,Colombia,-76.1667807,3.4481685
Matsudo,Japan,137.554138,35.1001601
Eaton,United Kingdom,-0.9335791,53.2945961
San Isidro,Mexico,-103.4295033,25.566821
Zürich,Switzerland,8.5382066,47.3920847
Lao Suea Kok,Thailand,104.9201205,15.4097396
Bogorejo,Indonesia,111.5200007,-6.9424923
Богданци,Macedonia,22.5760759,41.2033027
Palmares,Brazil,-35.5821519,-8.6764828
Hellevoetsluis,Netherlands,4.1481143,51.8281611
Kärdla,Estonia,22.7468094,58.9982038
Phoenix,United States,-111.97,33.45
Thawi Watthana,Thailand,100.33334,13.78851
Lengshui,China,110.037503,18.506048
Boguchwała,Poland,21.9314509,49.997292
Pasongsongan,Indonesia,113.6561725,-6.9485479
Igreja,Portugal,-8.3737419,41.9746108
Ubon Ratchathani,Thailand,104.8764505,15.2478876
Kingston,New Zealand,168.7149323,-45.3321502
Singida,Tanzania,34.1531947,-6.7453352
Yinjiang,China,87.5395855,42.5246357
Moutsamoudou,Comoros,44.40047,-12.1695811
Paprotnia,Poland,22.4724915,52.2902011
Puqi,China,113.900628,29.724692
Pankovka,Russia,31.1990697,58.4981562
Carromeu,Portugal,-8.738467,40.4140806
Mopti,Mali,-4.1974627,14.4874284
Tsyurupyns’k,Ukraine,32.7072675,46.6199321
Sūrāb,Pakistan,65.8232788,27.8914335
Charikar,Afghanistan,69.1625896,35.0107648
Västerås,Sweden,16.0069361,59.5138669
Xiangcheng,China,114.875333,33.465838
Łomianki,Poland,20.8869861,52.3336578
Tobol,Kazakhstan,62.5884412,52.695844
Seropédica,Brazil,-43.6950804,-22.7691646
Alburitel,Portugal,-8.5226286,39.6445351
Kangasala,Finland,24.0399227,61.4692103
Sapadun,Philippines,124.25,7.48333
San Juan Opico,El Salvador,-89.3582599,13.8758656
Atalaia,Portugal,-9.3203293,39.2349991
Kamphaeng Phet,Thailand,99.5096031,16.4739491
Pinglin,China,121.7107613,24.9350844
Lokuuy,Indonesia,119.8145,-9.5663
Markaz Bilād aţ Ţa‘ām,Yemen,43.53639,14.83361
Hancheng,China,110.442846,35.476788
Xiaodukou,China,111.915162,29.627993
Ngajum,Indonesia,112.5394091,-8.0916546
Tamamura,Japan,139.1386824,36.3046238
Chitagá,Colombia,-72.4731529,6.9725887
Chaoyangdong,China,107.497911,31.2169358
Amphoe Sikhiu,Thailand,101.7187284,14.8881276
Nida,Lithuania,21.017718,55.317303
Siguiri,Guinea,-9.1788304,11.4148113
Celorico de Basto,Portugal,-8.0022034,41.3869496
Assis,Brazil,-50.4187813,-22.6604341
Skuratovskiy,Russia,36.8430918,53.4405231
Lipov,Czech Republic,17.4598869,48.9059421
Macroom,Ireland,-8.958931,51.904635
Adolfo Ruiz Cortines,Mexico,-97.3692131,20.9450221
Pombal,Portugal,-8.294276,41.350131
Campok,Indonesia,99.9360207,0.1156645
Hausjärvi,Finland,24.9298029,60.7905791
Yixingfu,China,117.218044,39.19537
Fauske,Norway,15.3602308,67.2611001
Huanoquite,Peru,-72.019989,-13.68828
Čejkovice,Czech Republic,14.3800489,49.0122384
Firenze,Italy,11.2216134,43.7549435
Tungao,Philippines,125.5763557,8.7706603
Jiaocun,China,104.565145,28.228271
Quatre Bornes,Mauritius,57.4796981,-20.2674718
Las Tunas,Cuba,-76.9527836,20.957938
Heemstede,Netherlands,4.6073677,52.3329057
Las Lomas,Panama,-82.3777335,8.4430125
Dobryanka,Russia,56.4158867,58.3971367
Velká Polom,Czech Republic,18.0933139,49.8635922
Prado,Colombia,-74.927732,3.74973
Thành Phố Lạng Sơn,Vietnam,106.761519,21.853708
Muzi,China,120.6569721,28.0093247
Suvorovo,Bulgaria,27.5912198,43.331546
Pingdu,China,119.98842,36.776357
Naran Bulag,China,109.116667,43.516667
Cicayur,Indonesia,106.6236044,-6.2188206
Palmira,Colombia,-76.01598,3.5737543
Heitan,China,106.657113,32.027934
Intendente Alvear,Argentina,-58.551112,-34.566408
Pangansalan,Indonesia,108.4988269,-7.6150611
Lyon,France,1.9038837,43.0429124
Criciúma,Brazil,-49.3733771,-28.6727702
Dajin,China,111.11122,22.266473
Wuli,China,110.346166,29.893672
Tynne,Ukraine,26.7693629,51.1665287
Blama,Sierra Leone,-11.3402694,7.8726899
Amiens,France,2.3081396,49.8905368
Dongting,China,112.5841075,28.8876615
Ikoma,Japan,139.7523465,36.3197441
Girey,Russia,46.0016156,43.1613333
Ganjiachang,China,104.616392,30.069463
Vitry-le-François,France,4.7001329,48.747518
Changjiangbu,China,113.734707,30.855065
Ramón Castilla,Peru,-71.5438952,-16.3607933
Xinxing,China,112.225334,22.69569
Yangying,China,118.674614,37.433963
Dashi,China,106.461061,27.028446
Oslo,Norway,10.7559072,59.9531666
Bom Jesus da Lapa,Brazil,-43.4112394,-13.2513786
Bom Conselho,Brazil,-36.6150136,-9.2786495
Marādah,Libya,19.2058436,29.2187967
Modimolle,South Africa,28.6054979,-24.6079128
Zastron,South Africa,27.10324,-30.3078
Hedaru,Tanzania,37.9122236,-4.50345
Wanglu Kulon,Indonesia,111.7301652,-7.0219756
Berlin,Germany,13.6492904,52.416925
Chaiyaphum,Thailand,100.5072582,13.7387938
Kėdainiai,Lithuania,23.9749999,55.2884444
Wenci,China,116.932436,23.802044
Salvacion,Philippines,123.3765,13.4633
Bergen,Norway,5.3446343,60.3560649
Coronel Suárez,Argentina,-60.3090948,-36.9072882
Ranilug,Kosovo,21.5985177,42.4922477
Wuyanquan,China,108.520914,31.364042
El Carmen,Colombia,-73.4488,8.50874
Magallanes,Philippines,121.0482871,14.5624842
Waru,Indonesia,112.7688416,-7.3511436
Antabamba,Peru,-72.8778527,-14.3651534
Kotaagung,Indonesia,104.6471221,-5.4736254
Annecy,France,6.1250598,45.925854
Ngajum,Indonesia,112.5394091,-8.0916546
Saguiaran,Philippines,124.268625,8.039166
Guanshan,China,118.565462,31.753884
Montpellier,France,3.8626074,43.6121586
Skórzec,Poland,22.0951156,52.0969643
Shenavan,Armenia,44.3852966,40.4832736
Nanjing,China,118.796877,32.060255
Sibiti,Republic of the Congo,13.3500652,-3.6846513
Baiyangwan,China,120.547358,31.363344
Shuigou,China,79.9088564,37.1212974
Dongchuan,China,103.187824,26.082873
Jangkungkusumo,Indonesia,112.282503,-7.002985
Tubod,Philippines,123.8751554,7.9632405
Long Beluah,Indonesia,117.1147095,2.731033
Saint-Étienne-du-Rouvray,France,1.0839961,49.387383
Juḩr ad Dīk,Palestinian Territory,34.43719,31.45571
Марино,Macedonia,21.6211703,41.9844806
Wukang,China,114.316513,30.554299
Mrozy,Poland,21.828508,52.1379258
Malvern,Jamaica,-77.6936948,17.9678128
Puncaktugu,Indonesia,110.6338382,-7.8307181
Saratamata,Vanuatu,167.8138553,-15.3745452
Vapnyarka,Ukraine,28.7416365,48.5334788
Saint-Brieuc,France,-2.7674407,48.5111249
Casilda,Argentina,-60.6923382,-32.9285798
Kopral,Indonesia,106.8669252,-6.1597768
Bebedouro,Brazil,-48.4812248,-20.9400441
Sparwood,Canada,-79.3817651,43.805479
Andop,Philippines,125.4600442,11.6313786
Kuta,Nigeria,4.3000211,7.6497516
Mollās̄ānī,Iran,48.8875486,31.5825784
Vrýses,Greece,24.2012676,35.3750852
Las Flores,Mexico,-106.3830904,23.2675871
Carlos Barbosa,Brazil,-51.5008921,-29.2950409
Miki,Japan,134.9545157,34.8218609
Ocala,United States,-82.116955,29.2434976
Zoumi,Morocco,-5.3442408,34.8032705
Pingshan,China,114.346251,22.691253
Pasirnangka,Indonesia,106.2698669,-6.5792655
Lidköping,Sweden,13.1702373,58.5023638
Sekondi-Takoradi,Ghana,-1.7344155,4.9536104
Jiadingzhen,China,102.494696,36.951766
Aboisso,Ivory Coast,-3.2030756,5.4745106
Loga,Indonesia,112.590061,-7.400943
Port Erin,Isle of Man,-4.7544671,54.0852394
Krasnorechenskiy,Russia,135.3522837,44.6267383
Prigi,Indonesia,111.7227125,-8.2716375
Pointe-à-Pitre,Guadeloupe,-61.527249,16.2676129
Nangkaruka,Indonesia,107.6462,-7.4331
Tržič,Slovenia,14.3083372,46.3621517
São Bento,Brazil,-37.4894776,-6.4525359
Balgatay,Mongolia,97.15,46.9
Guxi,China,116.459299,39.909969
Qingshan,China,114.385538,30.63963
Calheta,Cape Verde,-23.2141352,15.229571
Andrijaševci,Croatia,18.7359718,45.218223
Shādegān,Iran,48.6539268,30.6545969
Rešetari,Croatia,17.427272,45.2625083
Xingbin,China,109.183333,23.72892
Zarya,Ukraine,26.0266362,50.7241261
Meghrashen,Armenia,43.9553461,40.6690083
Ozatlán,El Salvador,-88.5045477,13.3846598
Norrköping,Sweden,16.1948921,58.5785836
Arosbaya,Indonesia,112.8463007,-6.9704332
Runan,China,114.362379,33.006729
Sartrouville,France,2.1570562,48.9378251
Iganga,Uganda,33.4719832,0.6045833
Mombaça,Brazil,-39.734338,-5.8002425
Grand Forks,United States,-97.03,47.93
Pensacola,United States,-87.193563,30.475663
Tower,Ireland,-80.7087609,35.7797381
Santa Rosa,Peru,-77.1657716,-11.806679
Zouiat ech Cheïkh,Morocco,-5.9213829,32.654079
Chongxian,China,120.174895,30.387552
Dagou,China,112.16519,21.826957
Caxias,Brazil,-43.3619983,-4.8654138
Duobagou,China,116.293727,39.974179
Jiyizhuang,China,113.494587,39.239268
Bahía Honda,Cuba,-83.1702597,22.9081486
Kuwayris Sharqī,Syria,37.5454589,36.1722416
Kiboga,Uganda,31.7195459,0.965759
Gammad,Philippines,121.7477444,17.7047344
Ermelo,South Africa,30.447285,-26.4051075
Cileuya,Indonesia,108.6858533,-7.0321604
Barroco,Portugal,-8.64789,41.1276055
Ouango,Central African Republic,22.5498389,4.3139754
Celica,Ecuador,-79.9584397,-4.1031257
Cajamarca,Colombia,-75.5043761,4.3578737
Changxing,China,119.910952,31.026665
Frontignan,France,3.758728,43.444912
Careva Ćuprija,Bosnia and Herzegovina,18.4306437,43.8580221
Ibabang Tayuman,Philippines,121.8952135,14.0023717
Kizhinga,Russia,109.906166,51.842821
Kościerzyna,Poland,18.6691683,51.6437127
Harbutowice,Poland,19.785536,49.817777
Kozova,Ukraine,25.1580827,49.4305736
Gunjur,Gambia,-16.7559004,13.1806725
Ma Đa Gui,Vietnam,107.5386809,11.383932
Krapivna,Russia,37.1563793,53.94204
Palecenan,Indonesia,113.4028,-6.9557
Oslo,Norway,10.8972927,59.9416014
Doksy,Czech Republic,14.6542767,50.5658445
Taupo,New Zealand,176.6906671,-39.2147054
Oliveira de Baixo,Portugal,-7.9809124,40.7182748
Araçatuba,Brazil,-50.4536793,-21.2028539
Az̧ Z̧alī‘ah,Yemen,48.01667,15.01667
Örebro,Sweden,15.1301177,59.2375852
Fray Luis A. Beltrán,Argentina,-58.6694618,-34.6787774
Pozuzo,Peru,-75.5516879,-10.0680289
Ani-e,Philippines,123.448209,10.61225
San Carlos,Colombia,-75.698571,8.797145
Huiwen,China,120.635515,28.006273
Upper San Mateo,Philippines,121.021201,14.5700525
Longmen,China,112.4678779,34.5594987
Huelkail,Indonesia,124.0019,-9.6239
San Ignacio de Tupile,Panama,-78.154779,9.262717
Karanggedang,Indonesia,109.5895384,-7.6559369
Ilagan,Philippines,121.8540162,17.0977975
Ágios Vasíleios,Greece,24.4523968,35.2452552
Bang Saphan,Thailand,99.4450439,11.1148457
Wilczyce,Poland,21.6390801,50.7643672
Dayang,China,120.1245708,30.2827181
Bang Mun Nak,Thailand,100.417181,16.0213558
Ust’-Kachka,Russia,55.6720592,58.00284
Bireun,Indonesia,96.7172907,5.222103
Duofudu,China,101.78524,35.20048
Phetchabun,Thailand,101.0089066,16.8046261
Huangcun,China,113.407143,23.131797
Soa,Indonesia,121.067907,-8.7067624
Jianguo,China,116.45252,39.909214
Weizhou,China,109.118014,21.042256
Río Alejandro,Panama,-79.7890462,9.3733566
Makati City,Philippines,121.0409412,14.5598164
Dresden,Germany,13.6276849,51.085544
Maoyang,China,119.394148,27.718295
Tazarine,Morocco,-5.5459787,30.7717757
Laironja,Indonesia,120.2781,-10.0798
Rabig,Indonesia,106.40417,-6.81482
Mamedkala,Russia,48.1164779,42.1662941
Xibër-Murrizë,Albania,20.02556,41.45472
Ribeirópolis,Brazil,-37.4467952,-10.5086496
Osvaldo Cruz,Brazil,-50.879763,-21.7972251
Nong Khaem,Thailand,100.3448059,13.699545
San Miguel,Mexico,-99.0806088,19.3579802
Ciro Redondo,Cuba,-78.7107731,22.0106231
Oklahoma City,United States,-97.4273195,35.3922378
Cafe,Philippines,121.0460866,14.554384
Butahai,China,110.3216026,41.2926473
Partille,Sweden,12.1646899,57.6890848
Hongwei,China,123.1966721,41.217649
Macapá,Brazil,-51.0678473,0.0208039
Pangkajene,Indonesia,119.5571677,-4.805035
Smokvica,Croatia,15.1873721,44.3200232
Oju,Nigeria,8.352656,6.8907086
Las Vegas,United States,-115.3133908,36.0457187
Pyra,Russia,43.3592596,56.3137647
Beixin,China,121.507229,31.823845
Rates,Portugal,-8.6722459,41.4242264
Daegu,South Korea,128.601445,35.8714354
Wushishi,Nigeria,6.1112878,9.7220855
Неготино,Macedonia,21.3300873,41.0377245
Azacualpa,Honduras,-88.0876336,14.7121689
Paradyż,Poland,20.1143155,51.30568
Xiangdian,China,118.1202121,24.4908935
San Diego,Venezuela,-67.9583246,10.2535534
Satun,Thailand,98.3854869,7.8870586
Nagua,Dominican Republic,-70.4044232,18.9345715
Vällingby,Sweden,17.8720638,59.3614352
Karangsari,Indonesia,110.9561,-6.427987
Malangabang,Philippines,123.2062,11.2367
Kadusirung Hilir,Indonesia,105.935,-6.4296
Avellaneda,Argentina,-57.5825246,-37.9973752
Leer,South Sudan,30.1531568,8.296968
Padre Nabeto,Portugal,-8.8830265,38.5633826
Nhà Bè,Vietnam,106.704874,10.6952642
Curuzú Cuatiá,Argentina,-58.5303202,-34.6182974
Nemby,Paraguay,-57.536292,-25.3961603
Shuicha,China,115.067761,26.520513
Boychinovtsi,Bulgaria,26.5761136,43.2467751
Xiangfu,China,114.441285,34.756916
Woshui,China,112.235945,24.561134
Paris 07,France,2.302597,48.87561
Bulacan,Philippines,121.0288525,14.6539775
Xiaohebian,China,113.30928,23.116912
Compiègne,France,2.8134703,49.403331
Kärdla,Estonia,22.7468094,58.9982038
Heshan,China,112.964446,22.765392
Yanguan,China,120.120494,27.851032
Darungan,Indonesia,112.1579249,-7.7766561
Koga,Japan,130.5063545,32.9320578
Lundazi,Zambia,33.1745097,-12.2848978
Borovichi,Russia,33.9054011,58.3598758
Prince Rupert,Canada,-130.3293111,54.311687
Huntsville,United States,-86.6107106,34.6939733
Hüremt,Mongolia,102.625198,48.659828
Charleville-Mézières,France,4.7189252,49.7683038
Gosen,Japan,139.1650556,37.7525244
Longtang,China,110.4153075,19.8838774
Esteio,Brazil,-51.1845782,-29.8524975
Travesía,Honduras,-87.8930184,15.8672784
Cemara,Indonesia,106.8274787,-6.1874721
Goge,Indonesia,110.8095565,-6.6026644
Qianjin,China,130.375062,46.814102
Kuripan,Indonesia,116.165484,-8.6677026
Atsipópoulon,Greece,24.4345055,35.3527256
Cungapmimbo,Indonesia,114.2878,-7.7794
Quilpué,Chile,-71.4408752,-33.0482707
Ripky,Ukraine,31.0940874,51.8051758
Limoges,France,3.5276642,45.521519
San Antonio,United States,-98.4801308,29.4418162
Laiyang,China,120.711672,36.978941
Mangai,Democratic Republic of the Congo,19.5865629,-4.061738
Butiá,Brazil,-51.9615457,-30.1180899
El Ingenio,Peru,-75.0634,-14.65067
Ouro Preto,Brazil,-43.5035777,-20.3855743
Murowana Goślina,Poland,17.0351289,52.55694
Chiquinquirá,Colombia,-73.819571,5.614775
Villa Elisa,Paraguay,-57.5872528,-25.3823822
Gulong,China,118.0801092,24.4623104
Gorzkowice,Poland,19.5968399,51.2150482
Mustvee,Estonia,26.9399664,58.8484094
Lyubotyn,Ukraine,35.9407539,49.9511113
Daoxu,China,120.772494,30.044164
Leone,American Samoa,-170.7810162,-14.3377247
Kuroishi,Japan,133.7255189,33.786489
Imus,Philippines,120.9428802,14.4240257
Tambak,Philippines,121.6910432,13.9743478
Malichang,China,109.500848,28.429025
Biên Hòa,Vietnam,106.8426871,10.9574128
Priekule,Latvia,21.5989599,56.4482379
Geneina,Sudan,22.4649083,13.447898
Rozhnyativ,Ukraine,24.1594075,48.9361342
Viçosa do Ceará,Brazil,-41.0919197,-3.5670807
Pingdi,China,104.5991578,26.1050311
Nangakeo,Indonesia,120.3896651,-8.6796987
Boljevac,Serbia,21.9598032,43.8371234
Waitun,China,118.995179,27.33186
Jagna,Philippines,124.3690673,9.6522451
Vigo,Spain,-8.7357274,42.214405
Columbus,United States,-82.9770371,40.1420033
Mariinsk,Russia,87.7719548,56.2254132
Gap,France,2.3477753,48.8588363
Araxá,Brazil,-46.94141,-19.59354
Vila Chã,Portugal,-8.7353479,41.303548
Kudamatsu,Japan,131.9348946,34.0237477
Cama Juan,Philippines,120.8000031,15.3833332
Býšť,Czech Republic,15.9182326,50.1283894
Kota Kinabalu,Malaysia,116.0761121,5.9840985
Batouri,Cameroon,14.3617343,4.4354347
Mirzec,Poland,21.0487361,51.1501056
Minūf,Egypt,30.9305801,30.4659284
Chengshan,China,122.552273,37.363389
Lhuentse,Bhutan,91.135302,27.8264989
Kępno,Poland,17.9890591,51.2781356
Gabasumdo,China,100.54994,35.2589
Montpellier,France,3.8626074,43.6121586
Barmash,Albania,20.6206167,40.2779227
Sidamulya Satu,Indonesia,109.01489,-6.90572
Storozhevaya,Russia,41.4584783,43.8793185
Wielgie,Poland,19.2533342,52.7489266
Iles,Colombia,-77.521175,0.968911
Pirapora,Brazil,-44.9449465,-17.3410721
Rancaranji,Indonesia,105.939567,-6.194154
Anaheim,United States,-117.9009893,33.8181422
Hancheng,China,110.442846,35.476788
Vanadzor,Armenia,44.4970268,40.807399
Al Bayḑā’,Libya,21.7376178,32.756417
Camasca,Honduras,-88.3803792,13.9967823
Funchal,Portugal,-16.9417632,32.6480275
Grojec,Poland,19.234704,49.9800949
Nularan,Indonesia,125.0265256,-9.4954726
Timbiras,Brazil,-43.7142484,-4.087067
Vilarelho,Portugal,-8.8225193,41.860976
El Rosario,Nicaragua,-86.1662742,11.8334463
Chengxi,China,101.765843,36.628305
Sena Madureira,Brazil,-69.2877535,-9.6096717
Socabaya,Peru,-71.5308508,-16.4660314
Blachownia,Poland,18.9680842,50.7734719
Las Palmas,Mexico,-95.8162299,17.8281158
Sundbyberg,Sweden,17.9325356,59.3763019
Kandava,Latvia,22.7767899,57.033151
Olafulihaa,Indonesia,123.2307067,-10.6527113
Knoxville,United States,-83.99,35.94
Zengtian,China,114.987268,24.018269
Thívai,Greece,23.3204309,38.322579
Hetang,China,113.173487,27.855928
Firmat,Argentina,-61.486922,-33.453544
Libato,Philippines,121.401,13.8303
Lumbang,Philippines,121.022248,14.5374461
Johanneshov,Sweden,18.0916533,59.2914848
Selínia,Greece,23.5288412,37.9334705
Whittlesea,South Africa,26.8115141,-32.2002692
Fontinha,Portugal,-8.6326289,40.3809227
Smolenka,Russia,30.245977,59.85299
Quaraí,Brazil,-56.4488086,-30.3845133
Arnhem,Netherlands,5.9372731,51.9913857
Modosinal,Indonesia,122.9691183,-10.7937961
Cochabamba,Peru,-77.866667,-9.483333
Itabaianinha,Brazil,-37.7879303,-11.2750411
Tasikmalaya,Indonesia,108.2171633,-7.3505808
Guintubhan,Philippines,122.9611892,10.2060924
Zengguang,China,116.9237911,39.0527074
Valdemārpils,Latvia,22.591118,57.3690549
Lobos,Argentina,-58.4955016,-34.6234902
Hebi,China,114.297201,35.748233
El Triunfo,Ecuador,-79.4056784,-2.3286839
Cheban,China,109.8301973,21.5233008
Fredrikstad,Norway,11.0101588,59.2154931
Banjar,Indonesia,108.5342487,-7.3706874
Waipawa,New Zealand,176.7958307,-39.644114
Loppi,Finland,24.4417258,60.7207077
Yongfeng,China,115.444319,27.318852
Gualmatán,Colombia,-77.567138,0.919645
Pnikut,Ukraine,23.1314414,49.7115204
Xinbao,China,112.10915,22.951554
Padre Bernardo,Brazil,-48.2802925,-15.158624
Casal,Portugal,-7.9536382,41.2529921
Richibucto,Canada,-64.8659804,46.6817873
Chejiazhuang,China,114.514893,38.042805
Tanjungpecinan Utara,Indonesia,114.0309608,-7.6225762
Rungis,France,2.3536083,48.7381259
Da’an,China,124.292626,45.506995
Vratsa,Bulgaria,23.6556259,43.2625974
Najiaying,China,102.733854,24.178434
Zhangxi,China,118.03177,24.808198
Xiaopu,China,120.005147,26.885704
Lianghekou,China,105.752775,28.379727
Chenjiatan,China,119.425836,32.187849
Głuchów,Poland,20.065421,51.8123584
Arcena,Portugal,-9.050741,38.9083752
Bumba,Democratic Republic of the Congo,22.4708685,2.1961772
Corujeira,Portugal,-8.4171648,41.2357155
Tomingad,Philippines,122.02106,12.44311
Rešetari,Croatia,17.427272,45.2625083
Da’an,China,124.292626,45.506995
Planá,Czech Republic,12.7437969,49.8681673
Longcun,China,115.539275,23.551967
San Miguel Ixtahuacán,Guatemala,-91.7859274,15.2286069
Changxing,China,119.910952,31.026665
Bishan,China,106.227305,29.592024
Huangben,China,121.261886,28.650072
Sawara,Japan,130.3331069,33.5050373
Wojcieszków,Poland,22.3268117,51.7840088
Cavalões,Portugal,-8.5601403,41.4252912
Hilversum,Netherlands,5.1704277,52.2239735
Miao’ergou,China,83.867628,45.51596
Xike,China,121.454211,31.228026
Shihuiqiao,China,112.279606,30.548268
Letlhakane,Botswana,25.5858711,-21.4096214
La Unión,Guatemala,-90.496159,14.5933217
Mazamet,France,2.3764372,43.4899263
Katagum,Nigeria,10.3525964,12.289736
Cihideung Satu,Indonesia,106.3483779,-6.9028171
Manganitu,Indonesia,125.5110513,3.5233855
Hongqi Yingzi,China,123.4454,40.343992
Centenary,Zimbabwe,31.1166193,-16.7293695
Fovissste,Mexico,-104.9126044,27.1291264
Chvalšiny,Czech Republic,14.2111388,48.8540194
Bayeman,Indonesia,113.1292657,-7.7326298
Bystra,Poland,19.1833654,49.6246813
El Hajeb,Morocco,-5.3677844,33.685735
Estaca,Philippines,123.8565287,9.6625019
Mirsíni,Greece,21.2374124,37.9209684
Wysoka Strzyżowska,Poland,21.7407302,49.8296261
Venezia,Italy,12.3679401,45.4292105
Villanueva,Philippines,120.9889934,14.4722497
Myślenice,Poland,19.93965,49.83347
Pare,Indonesia,112.197899,-7.765512
Falun,Sweden,15.6197152,60.6132796
København,Denmark,12.5616448,55.6833424
Xigaoshan,China,115.004962,31.556273
Sakākā,Saudi Arabia,40.1043057,29.8780031
Heishui,China,102.990108,32.061895
Jājarm,Iran,56.3712327,36.9635917
Piuí,Brazil,-46.668872,-23.611227
Hacıqabul,Azerbaijan,48.9202533,40.039377
Qesarya,Israel,34.904544,32.519016
Tambura,South Sudan,27.4673845,5.6052635
Hedian,China,115.688238,36.330099
Langsa,Indonesia,97.9756343,4.4725348
Thị Trấn Tủa Chùa,Vietnam,103.3413048,21.856289
Bratislava,Slovakia,17.2054874,48.1722347
Kalnibolotskaya,Russia,40.45682,46.00582
San Juan,Costa Rica,-84.078434,9.955498
Arklow,Ireland,-8.4523258,51.880525
Carmen,Philippines,124.796217,7.20312
Galovac,Croatia,16.8524058,45.8440218
Villa Carlos Paz,Argentina,-64.485902,-31.413822
Palekastro,Greece,26.250031,35.200539
Agriá,Greece,23.0126047,39.3408388
Jaquimeyes,Dominican Republic,-71.16145,18.31173
Arroio do Meio,Brazil,-51.9580164,-29.3652193
Biloxi,United States,-88.9198322,30.4111518
Fontainebleau,France,2.6949635,48.4057628
Langford,Canada,-123.4956337,48.4474626
Lincoln,United States,-96.6157192,40.8247318
Mugango,Tanzania,33.7,-1.68333
Tiraspol,Moldova,29.6319884,46.8376386
Karangbayat,Indonesia,113.4418908,-8.0663604
Petrodvorets,Russia,29.9085976,59.8863041
Donggu,China,113.751799,23.020673
Juru,Brazil,-37.7662816,-7.4652278
Sabana Grande de Palenque,Dominican Republic,-70.1473203,18.2604623
Yashio-shi,Japan,139.8370142,35.8113988
Pulong Sampalok,Philippines,121.0208817,14.9380064
Tabor,Slovenia,15.0174249,46.2107921
Buganda,Burundi,29.2088303,-2.9679629
Karangtalun,Indonesia,109.0185719,-7.6772147
Ljusdal,Sweden,15.427113,60.5381467
Páno Polemídia,Cyprus,32.9916478,34.7091547
Cikijing,Indonesia,108.3682641,-7.0117033
Huaminglou,China,112.636417,28.040943
Chaiyaphum,Thailand,100.5072582,13.7387938
Fuji,Japan,139.747389,37.5568153
Rosetta,Egypt,30.4171887,31.4008095
Berlin,Germany,13.4761485,52.5593051
Vereya,Russia,39.1006189,55.7711328
Malveira,Portugal,-9.252733,38.9374004
Petrolina de Goiás,Brazil,-49.3247147,-16.115743
Ýpsonas,Cyprus,32.9550349,34.6882288
Chlumec,Czech Republic,13.9301748,50.7056119
Bejuco,Costa Rica,-85.325961,9.829638
Kuala Lumpur,Malaysia,101.700398,3.1409415
Maardu,Estonia,24.9801867,59.4687696
Zhangjiafan,China,115.318821,31.046822
Jincheng,China,112.851831,35.490701
Tibakisa,Indonesia,121.3054,-8.7393
Salt Lake City,United States,-112.0118669,40.6999925
Khagrachhari,Bangladesh,91.8580145,22.9155908
Chichinales,Argentina,-67.976045,-38.9126083
Xiniu,China,114.917346,27.817808
Chełm,Poland,19.7574249,50.3590929
Loa Janan,Indonesia,117.0323305,-0.7048801
Varoška Rijeka,Bosnia and Herzegovina,16.0189989,45.090227
San Vicente,Argentina,-58.5529923,-34.5860444
Feni,Bangladesh,91.4828056,23.0356299
Yiqi,China,111.6717568,39.1372748
Shlissel’burg,Russia,31.0466749,59.940313
Santos Evos,Portugal,-7.8303977,40.6588133
Barbacena,Brazil,-43.7764925,-21.2399347
Amman,Jordan,35.9283716,31.9453666
Nzega,Tanzania,32.8986812,-4.3920698
Xilanqi,China,123.52481,40.174881
Būrabay,Kazakhstan,70.0973718,53.016924
Florianópolis,Brazil,-48.5482195,-27.5948698
Wukeshu,China,103.323844,24.820587
Biñan,Philippines,121.0671937,14.3160322
Santo Tomas,Philippines,125.6239227,7.5273576
Wanglinkou,China,114.35056,38.822691
Davyd-Haradok,Belarus,27.2119237,52.0546671
Markušica,Croatia,18.693916,45.3612879
Kusi,Indonesia,124.4752715,-10.0274881
Kedungsinggil,Indonesia,111.9161,-8.0993
Paris 08,France,5.8978018,43.4945737
Kalininaul,Russia,46.5659164,43.0712553
Praia,Cape Verde,-23.5133267,14.93305
Conceição da Barra,Brazil,-39.9322068,-18.4315276
Ryazanskiy,Russia,37.784921,55.7165288
Liuyuan,China,117.115904,39.207953
Bayanhongor,Mongolia,100.1073667,45.1526707
Angra dos Reis,Brazil,-44.5260106,-23.0115939
Shanshu,China,102.555028,27.254639
Villamaría,Colombia,-75.514771,5.042569
Geita,Tanzania,32.2313539,-2.8850378
Masḩah,Palestinian Territory,35.05096,32.10828
Tampakan,Philippines,124.925696,6.444345
Tungdor,China,94.08333,29.2
